City_ID,City,Lat,Lng,Max Temp,Humidity,Cloudiness,Wind Speed,Country,Date
0,Albany,42.6001,-73.9662,69.46,80,94,1.86,US,2022-07-28 03:50:22
1,Mataura,-46.1927,168.8643,47.48,98,100,3.78,NZ,2022-07-28 03:50:40
2,San Luis,-33.295,-66.3356,43.84,89,99,7.29,AR,2022-07-28 03:50:41
3,Saint-Pierre,-21.3393,55.4781,69.91,69,20,5.75,RE,2022-07-28 03:49:17
4,Bambous Virieux,-20.3428,57.7575,69.22,88,40,6.91,MU,2022-07-28 03:50:41
5,Qaanaaq,77.484,-69.3632,36.48,94,45,2.39,GL,2022-07-28 03:49:31
6,Ponta Do Sol,32.6667,-17.1,73.71,74,0,5.91,PT,2022-07-28 03:50:42
7,Mufulira,-12.5498,28.2407,50.07,84,16,3.85,ZM,2022-07-28 03:50:42
8,Hobart,-42.8794,147.3294,53.06,62,93,4.0,AU,2022-07-28 03:50:42
9,Chuy,-33.6971,-53.4616,60.3,97,100,6.91,UY,2022-07-28 03:47:34
10,Punta Arenas,-53.15,-70.9167,39.31,75,20,26.46,CL,2022-07-28 03:50:43
11,Pevek,69.7008,170.3133,36.34,86,96,5.99,RU,2022-07-28 03:50:43
12,Mar Del Plata,-38.0023,-57.5575,51.1,57,100,15.99,AR,2022-07-28 03:50:43
13,Bethel,41.3712,-73.414,73.76,82,0,1.01,US,2022-07-28 03:48:06
14,Carnarvon,-24.8667,113.6333,74.66,47,100,4.16,AU,2022-07-28 03:48:36
15,Goderich,43.7501,-81.7165,73.72,83,0,11.5,CA,2022-07-28 03:50:44
16,Zhezkazgan,47.8043,67.7144,78.78,47,0,8.95,KZ,2022-07-28 03:50:45
17,Ballina,-28.8667,153.5667,68.02,54,0,4.92,AU,2022-07-28 03:50:45
18,Glasgow,55.8652,-4.2576,51.3,95,100,1.99,GB,2022-07-28 03:50:45
19,Ushuaia,-54.8,-68.3,40.66,81,75,18.41,AR,2022-07-28 03:47:06
20,Provideniya,64.3833,-173.3,44.71,100,100,7.0,RU,2022-07-28 03:48:13
21,Tomari,47.7658,142.0683,67.24,73,15,6.4,RU,2022-07-28 03:50:46
22,Puerto Ayora,-0.7393,-90.3518,68.56,98,98,5.99,EC,2022-07-28 03:50:47
23,Severo-Kurilsk,50.6789,156.125,54.93,88,96,5.91,RU,2022-07-28 03:50:47
24,Nanortalik,60.1432,-45.2371,42.3,85,97,9.48,GL,2022-07-28 03:48:06
25,Hermanus,-34.4187,19.2345,53.8,79,0,12.21,ZA,2022-07-28 03:50:47
26,Vostok,46.4856,135.8833,83.66,48,41,5.03,RU,2022-07-28 03:47:04
27,Saint-Leu,-21.15,55.2833,69.31,71,9,3.78,RE,2022-07-28 03:50:48
28,Chokurdakh,70.6333,147.9167,62.02,33,88,14.52,RU,2022-07-28 03:50:48
29,Kununurra,-15.7667,128.7333,80.58,18,5,10.36,AU,2022-07-28 03:50:33
30,Saint George,37.1041,-113.5841,74.62,75,40,8.05,US,2022-07-28 03:46:58
31,Kantunilkin,21.0917,-87.45,76.89,92,30,3.56,MX,2022-07-28 03:50:49
32,Kaitangata,-46.2817,169.8464,44.8,93,100,7.58,NZ,2022-07-28 03:50:40
33,Cape Town,-33.9258,18.4232,59.38,80,0,2.3,ZA,2022-07-28 03:47:16
34,Nikolskoye,59.7035,30.7861,61.88,75,0,4.56,RU,2022-07-28 03:49:43
35,Ribeira Grande,38.5167,-28.7,72.52,83,25,9.42,PT,2022-07-28 03:50:50
36,Jamestown,42.097,-79.2353,72.99,73,100,6.91,US,2022-07-28 03:50:28
37,Busselton,-33.65,115.3333,64.51,68,27,12.55,AU,2022-07-28 03:49:22
38,Merauke,-8.4667,140.3333,80.92,76,84,19.98,ID,2022-07-28 03:49:29
39,Bengkulu,-3.8004,102.2655,84.9,65,52,3.0,ID,2022-07-28 03:50:50
40,Saint-Francois,46.4154,3.9054,49.44,100,0,2.3,FR,2022-07-28 03:50:51
41,Dunedin,-45.8742,170.5036,45.81,91,100,13.0,NZ,2022-07-28 03:46:39
42,Saskylakh,71.9167,114.0833,74.19,51,84,8.21,RU,2022-07-28 03:50:51
43,Sao Jose Da Coroa Grande,-8.8978,-35.1478,72.19,87,65,5.12,BR,2022-07-28 03:50:51
44,Mahebourg,-20.4081,57.7,69.26,88,40,6.91,MU,2022-07-28 03:49:12
45,Klaksvik,62.2266,-6.589,52.72,91,89,14.2,FO,2022-07-28 03:51:52
46,Airai,-8.9266,125.4092,71.01,46,13,5.44,TL,2022-07-28 03:51:23
47,Kaeo,-35.1,173.7833,61.32,81,48,12.86,NZ,2022-07-28 03:51:52
48,Iqaluit,63.7506,-68.5145,47.93,81,75,0.0,CA,2022-07-28 03:51:53
49,Pachino,36.7186,15.0907,79.68,73,1,6.17,IT,2022-07-28 03:51:53
50,Inhambane,-23.865,35.3833,57.18,94,40,0.0,MZ,2022-07-28 03:51:53
51,Assiniboia,49.6334,-105.9845,60.62,59,34,6.91,CA,2022-07-28 03:51:54
52,Bluff,-46.6,168.3333,47.8,86,100,11.52,NZ,2022-07-28 03:51:54
53,Bilma,18.6853,12.9164,82.92,58,81,8.72,NE,2022-07-28 03:51:54
54,Vao,-22.6667,167.4833,69.57,67,100,7.9,NC,2022-07-28 03:51:55
55,Xuddur,4.1213,43.8894,67.41,80,41,16.31,SO,2022-07-28 03:51:55
56,New Norfolk,-42.7826,147.0587,52.72,70,97,3.0,AU,2022-07-28 03:47:55
57,Xai-Xai,-25.0519,33.6442,58.21,89,0,3.65,MZ,2022-07-28 03:51:55
58,Sacama,-3.9,-79.2667,46.0,95,84,5.1,EC,2022-07-28 03:51:56
59,Butaritari,3.0707,172.7902,81.84,78,11,12.53,KI,2022-07-28 03:51:56
60,Lebu,-37.6167,-73.65,48.58,85,21,4.79,CL,2022-07-28 03:49:12
61,Avarua,-21.2078,-159.775,77.05,69,40,12.66,CK,2022-07-28 03:48:05
62,Korba,22.35,82.6833,87.1,62,70,6.02,IN,2022-07-28 03:51:10
63,Victoria,22.2855,114.1577,92.03,72,0,5.01,HK,2022-07-28 03:51:53
64,Hithadhoo,-0.6,73.0833,82.8,73,100,11.79,MV,2022-07-28 03:51:57
65,Miles City,46.4083,-105.8406,70.77,28,0,8.05,US,2022-07-28 03:51:57
66,Gulariya,28.2333,81.3333,88.5,62,100,5.53,NP,2022-07-28 03:51:57
67,Salisbury,51.0693,-1.7957,59.97,79,100,6.51,GB,2022-07-28 03:51:58
68,Kroya,-7.6331,109.2461,83.3,70,63,6.42,ID,2022-07-28 03:51:58
69,Coos Bay,43.3665,-124.2179,63.0,96,100,6.91,US,2022-07-28 03:51:59
70,Fortuna,40.5982,-124.1573,58.93,84,7,1.01,US,2022-07-28 03:49:17
71,Kapaa,22.0752,-159.319,82.72,76,20,16.11,US,2022-07-28 03:51:59
72,Te Anau,-45.4167,167.7167,41.72,98,100,1.39,NZ,2022-07-28 03:51:36
73,Bambanglipuro,-7.95,110.2833,82.89,71,73,11.65,ID,2022-07-28 03:52:00
74,Hilo,19.7297,-155.09,85.28,78,40,9.22,US,2022-07-28 03:52:00
75,Lorengau,-2.0226,147.2712,83.91,75,45,12.8,PG,2022-07-28 03:52:00
76,Pervomayskiy,53.2485,40.2871,71.96,68,41,3.91,RU,2022-07-28 03:52:01
77,Port Elizabeth,-33.918,25.5701,57.31,98,75,3.0,ZA,2022-07-28 03:52:01
78,Talnakh,69.4865,88.3972,58.21,60,91,12.95,RU,2022-07-28 03:52:01
79,Mingaora,34.7758,72.3625,76.95,88,100,4.09,PK,2022-07-28 03:52:01
80,Kruisfontein,-34.0033,24.7314,51.73,91,2,5.12,ZA,2022-07-28 03:52:02
81,Rikitea,-23.1203,-134.9692,74.03,67,100,17.85,PF,2022-07-28 03:52:02
82,Champerico,14.3,-91.9167,78.82,82,66,4.63,GT,2022-07-28 03:52:02
83,Lompoc,34.6391,-120.4579,64.54,85,100,12.66,US,2022-07-28 03:50:07
84,Bowling Green,36.9903,-86.4436,75.15,95,100,3.44,US,2022-07-28 03:51:45
85,Prado,-17.3411,-39.2208,68.97,84,59,1.59,BR,2022-07-28 03:52:03
86,Ukiah,39.1502,-123.2078,87.69,23,0,6.91,US,2022-07-28 03:52:03
87,Kieta,-6.2167,155.6333,85.24,66,8,7.94,PG,2022-07-28 03:52:04
88,Nuuk,64.1835,-51.7216,40.05,94,82,11.81,GL,2022-07-28 03:52:04
89,Kayerkan,69.3497,87.7602,57.52,82,98,9.35,RU,2022-07-28 03:52:05
90,Challans,46.8436,-1.8749,62.8,66,91,4.7,FR,2022-07-28 03:52:05
91,Hambantota,6.1241,81.1185,77.34,100,20,4.61,LK,2022-07-28 03:52:05
92,Aklavik,68.2191,-135.0107,52.75,63,89,11.34,CA,2022-07-28 03:53:06
93,Geraldton,-28.7667,114.6,70.21,68,40,8.05,AU,2022-07-28 03:53:06
94,Vanimo,-2.6741,141.3028,84.81,70,64,9.86,PG,2022-07-28 03:48:12
95,Sterling,39.0062,-77.4286,79.57,90,0,5.01,US,2022-07-28 03:53:07
96,Daru,-9.0763,143.2092,78.12,88,43,19.55,PG,2022-07-28 03:53:07
97,Acapulco,16.8634,-99.8901,77.92,86,98,4.74,MX,2022-07-28 03:48:29
98,Mount Gambier,-37.8333,140.7667,51.62,74,97,7.94,AU,2022-07-28 03:53:08
99,Hofn,64.2539,-15.2082,52.68,98,100,18.99,IS,2022-07-28 03:53:08
100,Khatanga,71.9667,102.5,72.39,45,94,4.09,RU,2022-07-28 03:53:08
101,Saldanha,-33.0117,17.9442,42.85,69,0,7.58,ZA,2022-07-28 03:53:09
102,Carauari,-4.8828,-66.8958,74.82,75,20,1.5,BR,2022-07-28 03:53:09
103,Takoradi,4.8845,-1.7554,74.93,83,89,13.13,GH,2022-07-28 03:53:09
104,Saint-Philippe,-21.3585,55.7679,67.59,85,38,10.11,RE,2022-07-28 03:53:10
105,Victor Harbor,-35.5667,138.6167,56.68,86,92,1.01,AU,2022-07-28 03:53:10
106,Yellowknife,62.456,-114.3525,66.72,63,75,11.5,CA,2022-07-28 03:49:09
107,Pangnirtung,66.1451,-65.7125,54.09,69,100,1.25,CA,2022-07-28 03:49:59
108,Korfez,40.7767,29.7297,70.68,75,0,6.49,TR,2022-07-28 03:53:11
109,Alice Springs,-23.7,133.8833,69.22,32,1,10.36,AU,2022-07-28 03:53:12
110,Bomet,-0.7813,35.3416,55.31,91,100,2.64,KE,2022-07-28 03:53:12
111,Torbay,47.6666,-52.7314,63.57,94,100,17.27,CA,2022-07-28 03:53:12
112,Zhangjiakou,40.81,114.8794,79.38,48,9,3.18,CN,2022-07-28 03:53:13
113,Portland,45.5234,-122.6762,88.66,52,4,4.0,US,2022-07-28 03:53:13
114,Gat,31.61,34.7642,77.4,63,0,1.99,IL,2022-07-28 03:53:13
115,Mount Isa,-20.7333,139.5,74.97,22,31,14.97,AU,2022-07-28 03:50:03
116,Pisco,-13.7,-76.2167,59.05,82,20,3.44,PE,2022-07-28 03:53:14
117,Qasigiannguit,68.8193,-51.1922,38.28,94,100,0.38,GL,2022-07-28 03:53:12
118,Itoman,26.1247,127.6694,88.18,74,75,9.22,JP,2022-07-28 03:53:14
119,Wajir,1.7471,40.0573,71.56,68,0,0.0,KE,2022-07-28 03:53:15
120,Tasiilaq,65.6145,-37.6368,35.82,96,92,5.53,GL,2022-07-28 03:53:15
121,Sembakung,3.8167,117.25,87.62,66,89,1.95,ID,2022-07-28 03:53:15
122,Kattivakkam,13.2167,80.3167,87.89,81,58,5.32,IN,2022-07-28 03:53:16
123,Oistins,13.0667,-59.5333,80.69,74,40,19.57,BB,2022-07-28 03:53:16
124,Carroll,39.5501,-77.0164,79.5,85,100,4.0,US,2022-07-28 03:53:16
125,Kodiak,57.79,-152.4072,56.71,62,0,8.05,US,2022-07-28 03:49:09
126,Sao Joao Dos Patos,-6.495,-43.7022,73.99,46,96,3.85,BR,2022-07-28 03:53:17
127,Putina,-15.4667,-69.4333,41.38,51,9,4.61,PE,2022-07-28 03:53:17
128,Sao Filipe,14.8961,-24.4956,78.26,88,92,3.98,CV,2022-07-28 03:53:17
129,Moose Factory,51.2585,-80.6094,64.4,100,100,3.44,CA,2022-07-28 03:53:18
130,Denpasar,-8.65,115.2167,83.86,74,40,17.27,ID,2022-07-28 03:51:31
131,Kemijarvi,66.7131,27.4306,52.11,78,47,8.95,FI,2022-07-28 03:53:12
132,Kloulklubed,7.0419,134.2556,84.22,71,100,7.56,PW,2022-07-28 03:53:18
133,Dingle,10.9995,122.6711,87.67,70,99,11.12,PH,2022-07-28 03:49:41
134,Aswan,24.0934,32.907,85.3,16,0,5.75,EG,2022-07-28 03:53:19
135,Lagoa,39.05,-27.9833,71.13,81,0,7.27,PT,2022-07-28 03:54:19
136,Dikson,73.5069,80.5464,40.55,94,61,13.49,RU,2022-07-28 03:54:20
137,San Andres,12.5847,-81.7006,82.42,100,40,8.05,CO,2022-07-28 03:54:20
138,Rio Grande,-32.035,-52.0986,58.95,96,98,7.38,BR,2022-07-28 03:54:20
139,Kudahuvadhoo,2.6708,72.8944,82.54,73,98,14.97,MV,2022-07-28 03:49:38
140,Lucapa,-8.4192,20.7447,61.32,38,72,3.49,AO,2022-07-28 03:54:21
141,Port Alfred,-33.5906,26.891,63.79,82,89,20.11,ZA,2022-07-28 03:54:21
142,Georgetown,5.4112,100.3354,89.53,73,20,9.22,MY,2022-07-28 03:54:21
143,Brae,60.3964,-1.353,51.24,80,61,6.64,GB,2022-07-28 03:50:43
144,Gornopravdinsk,60.05,69.9,63.3,60,99,9.33,RU,2022-07-28 03:54:22
145,Cidreira,-30.1811,-50.2056,61.11,88,100,4.81,BR,2022-07-28 03:54:22
146,Sokolo,14.7328,-6.1219,82.62,66,4,16.4,ML,2022-07-28 03:54:22
147,Vila,42.0304,-8.1588,52.68,85,4,1.01,PT,2022-07-28 03:54:23
148,Linjiang,41.8069,126.9078,87.62,51,100,0.76,CN,2022-07-28 03:54:23
149,Atuona,-9.8,-139.0333,77.63,73,21,24.16,PF,2022-07-28 03:54:23
150,Souillac,-20.5167,57.5167,68.38,88,40,6.91,MU,2022-07-28 03:54:24
151,Panguipulli,-39.6333,-72.3333,42.94,97,88,1.12,CL,2022-07-28 03:54:24
152,Puerto Cabezas,14.0351,-83.3888,77.32,88,3,6.6,NI,2022-07-28 03:54:24
153,Karratha,-20.7377,116.8463,79.86,36,0,18.14,AU,2022-07-28 03:54:25
154,Thompson,55.7435,-97.8558,59.16,88,75,2.3,CA,2022-07-28 03:54:25
155,Panlaitan,12.1191,119.8486,85.78,73,89,10.92,PH,2022-07-28 03:54:25
156,Tuatapere,-46.1333,167.6833,44.69,93,100,3.65,NZ,2022-07-28 03:54:26
157,Verkhniy Uslon,55.7701,48.9823,66.42,88,33,4.65,RU,2022-07-28 03:54:26
158,Teguise,29.0605,-13.564,68.22,78,20,19.57,ES,2022-07-28 03:54:26
159,Hamilton,39.1834,-84.5333,75.99,92,42,4.41,US,2022-07-28 03:53:43
160,Behbahan,30.5959,50.2417,87.49,70,92,8.05,IR,2022-07-28 03:54:27
161,Madera,37.1666,-119.8343,90.55,33,34,1.01,US,2022-07-28 03:50:37
162,Batsfjord,70.6345,29.7185,49.93,93,100,20.71,NO,2022-07-28 03:54:27
163,Biak,-0.9131,122.8766,80.28,77,95,9.33,ID,2022-07-28 03:54:28
164,Smithers,54.7804,-127.1743,84.52,45,0,4.61,CA,2022-07-28 03:54:28
165,Yerbogachen,61.2767,108.0108,74.88,68,38,6.51,RU,2022-07-28 03:54:28
166,Ola,59.5833,151.2833,75.15,76,30,13.4,RU,2022-07-28 03:54:29
167,Elvas,38.8815,-7.1628,63.64,61,0,5.23,PT,2022-07-28 03:54:29
168,Zabid,14.1951,43.3152,90.54,53,29,5.35,YE,2022-07-28 03:54:29
169,Aste,45.7906,11.0961,66.18,92,10,3.29,IT,2022-07-28 03:54:30
170,Kutum,14.2,24.6667,72.34,66,89,4.94,SD,2022-07-28 03:54:30
171,Castro,-24.7911,-50.0119,56.53,80,90,2.75,BR,2022-07-28 03:51:44
172,Mattru,7.6244,-11.8332,71.37,98,80,2.21,SL,2022-07-28 03:54:30
173,Yulara,-25.2406,130.9889,63.88,16,12,12.95,AU,2022-07-28 03:54:31
174,Sakakah,29.9697,40.2064,85.57,13,6,9.28,SA,2022-07-28 03:53:50
175,San Juan,-31.5375,-68.5364,49.78,71,99,11.18,AR,2022-07-28 03:50:15
176,Nirasaki,35.7,138.45,92.48,57,98,1.99,JP,2022-07-28 03:54:31
177,Kahului,20.8947,-156.47,84.22,66,20,23.02,US,2022-07-28 03:51:52
178,Vredendal,-31.6683,18.5012,54.0,61,0,6.73,ZA,2022-07-28 03:54:32
179,Norman Wells,65.282,-126.8329,64.44,55,75,3.44,CA,2022-07-28 03:53:12
180,East London,-33.0153,27.9116,59.94,88,0,4.61,ZA,2022-07-28 03:54:32
181,Port Hedland,-20.3167,118.5667,82.45,36,0,14.97,AU,2022-07-28 03:54:33
182,Los Llanos De Aridane,28.6585,-17.9182,69.12,93,40,19.57,ES,2022-07-28 03:53:15
183,Xinqing,48.2333,129.5,91.69,36,100,9.48,CN,2022-07-28 03:55:33
184,Adrar,20.5022,-10.0711,94.12,9,0,8.81,MR,2022-07-28 03:55:34
185,Puerto Maldonado,-12.6,-69.1833,72.88,84,47,1.66,PE,2022-07-28 03:55:34
186,Barrow,71.2906,-156.7887,32.88,99,100,14.56,US,2022-07-28 03:55:34
187,Acarau,-2.8856,-40.12,77.83,82,81,14.52,BR,2022-07-28 03:51:04
188,Le Pradet,43.1066,6.0172,69.67,58,0,3.44,FR,2022-07-28 03:55:35
189,Vernashen,39.7924,45.3639,70.72,50,2,2.19,AM,2022-07-28 03:55:35
190,Miyang,24.4042,103.4428,77.81,72,94,4.72,CN,2022-07-28 03:55:35
191,Usinsk,65.9939,57.5281,67.06,50,67,13.73,RU,2022-07-28 03:55:36
192,Cabo San Lucas,22.8909,-109.9124,86.5,71,44,10.29,MX,2022-07-28 03:52:18
193,Sitka,57.0531,-135.33,60.69,72,100,5.75,US,2022-07-28 03:50:52
194,Kushima,31.4583,131.2333,86.83,69,23,11.05,JP,2022-07-28 03:55:36
195,Pervomayskoye,43.919,46.7102,73.81,67,16,6.02,RU,2022-07-28 03:55:36
196,Longyearbyen,78.2186,15.6401,42.64,81,75,18.41,SJ,2022-07-28 03:55:37
197,Rawson,-43.3002,-65.1023,40.39,80,7,16.08,AR,2022-07-28 03:50:51
198,Isangel,-19.55,169.2667,73.51,94,100,2.3,VU,2022-07-28 03:55:37
199,Fengzhen,40.4394,113.1536,77.02,41,0,3.76,CN,2022-07-28 03:55:37
200,Mahajanga,-15.7167,46.3167,64.42,94,20,3.44,MG,2022-07-28 03:55:38
201,Charters Towers,-20.1,146.2667,71.13,23,0,9.06,AU,2022-07-28 03:52:30
202,Naryan-Mar,67.6713,53.087,69.06,59,100,14.88,RU,2022-07-28 03:55:38
203,Mandalgovi,45.7625,106.2708,74.57,30,54,17.22,MN,2022-07-28 03:55:39
204,Hualmay,-11.0964,-77.6139,61.41,87,43,10.18,PE,2022-07-28 03:53:59
205,Cockburn Town,21.4612,-71.1419,81.16,77,0,20.92,TC,2022-07-28 03:51:10
206,Weihai,37.5017,122.1136,82.47,77,86,10.6,CN,2022-07-28 03:55:39
207,Sorland,67.667,12.6934,49.86,77,37,11.39,NO,2022-07-28 03:55:40
208,Negotino,41.4839,22.0892,70.0,68,35,1.7,MK,2022-07-28 03:52:36
209,Riverton,40.5219,-111.9391,83.39,28,0,4.0,US,2022-07-28 03:55:40
210,Padang,-0.9492,100.3543,86.05,57,24,4.41,ID,2022-07-28 03:55:40
211,Faanui,-16.4833,-151.75,78.6,76,14,25.39,PF,2022-07-28 03:55:41
212,Sochi,43.6,39.7303,66.29,69,0,3.58,RU,2022-07-28 03:52:07
213,Vaini,-21.2,-175.2,78.96,83,20,10.36,TO,2022-07-28 03:55:41
214,Kysyl-Syr,63.8986,122.7617,86.52,38,20,6.42,RU,2022-07-28 03:55:41
215,Naze,28.3667,129.4833,86.92,82,68,15.79,JP,2022-07-28 03:55:42
216,Kupang,-10.1667,123.5833,84.24,50,25,14.43,ID,2022-07-28 03:55:42
217,Kavaratti,10.5669,72.642,78.55,87,100,17.47,IN,2022-07-28 03:55:42
218,Muttupet,10.4,79.4833,84.69,67,85,3.91,IN,2022-07-28 03:55:43
219,Ancud,-41.8697,-73.8203,42.85,92,24,2.62,CL,2022-07-28 03:55:43
220,Beira,-19.8436,34.8389,57.29,93,0,5.99,MZ,2022-07-28 03:55:43
221,Walvis Bay,-22.9575,14.5053,53.1,93,4,1.14,NA,2022-07-28 03:55:44
222,Leningradskiy,69.3833,178.4167,39.06,79,95,7.56,RU,2022-07-28 03:52:03
223,Dolo,45.4283,12.0725,77.07,67,3,6.62,IT,2022-07-28 03:55:44
224,Byron Bay,-28.65,153.6167,67.95,51,0,6.46,AU,2022-07-28 03:55:44
225,Eureka,40.8021,-124.1637,59.2,86,13,1.99,US,2022-07-28 03:55:02
226,Bredasdorp,-34.5322,20.0403,47.79,91,0,5.7,ZA,2022-07-28 03:55:45
227,Payo,-3.7508,103.6372,83.14,70,99,5.12,ID,2022-07-28 03:55:45
228,Russell,32.3502,-85.1999,81.63,83,0,3.44,US,2022-07-28 03:52:47
229,Buala,-8.145,159.5921,85.06,67,13,9.1,SB,2022-07-28 03:55:46
230,Vung Tau,10.346,107.0843,84.07,71,52,1.95,VN,2022-07-28 03:56:46
231,Yar-Sale,66.8333,70.8333,66.2,55,83,11.79,RU,2022-07-28 03:54:36
232,Arraial Do Cabo,-22.9661,-42.0278,67.96,83,0,8.05,BR,2022-07-28 03:56:46
233,Neiafu,-18.65,-173.9833,79.48,73,40,9.22,TO,2022-07-28 03:56:47
234,Port Hardy,50.6996,-127.4199,69.98,73,20,4.61,CA,2022-07-28 03:55:54
235,Ostrovnoy,68.0531,39.5131,62.91,78,63,16.44,RU,2022-07-28 03:56:47
236,Shihezi,44.3,86.0333,96.91,11,2,3.91,CN,2022-07-28 03:56:47
237,Clyde River,70.4692,-68.5914,37.63,100,100,5.75,CA,2022-07-28 03:56:48
238,Mabaruma,8.2,-59.7833,73.96,94,0,2.3,GY,2022-07-28 03:56:48
239,Aketi,2.7388,23.7833,70.0,99,100,2.04,CD,2022-07-28 03:56:48
240,Tiksi,71.6872,128.8694,70.43,56,90,7.54,RU,2022-07-28 03:52:05
241,Newburgh,41.5034,-74.0104,74.86,76,100,4.25,US,2022-07-28 03:56:49
242,Kurchum,48.5722,83.6542,83.5,25,64,0.49,KZ,2022-07-28 03:56:49
243,Lavumisa,-27.31,31.892,59.05,85,66,2.06,SZ,2022-07-28 03:56:49
244,Jasper,37.2001,-94.3502,78.71,89,86,6.53,US,2022-07-28 03:56:50
245,Ikot Ekpene,5.1794,7.7108,72.34,96,100,6.82,NG,2022-07-28 03:56:50
246,Ixtapa,20.7,-105.2,79.23,87,100,1.01,MX,2022-07-28 03:56:44
247,Kavali,14.9167,79.9833,87.26,62,13,5.17,IN,2022-07-28 03:56:51
248,Russelsheim,49.9925,8.435,61.11,59,0,11.5,DE,2022-07-28 03:56:51
249,Anamur,36.0751,32.8369,84.2,43,0,5.57,TR,2022-07-28 03:56:51
250,Fallon,39.4735,-118.7774,94.87,11,75,6.91,US,2022-07-28 03:55:43
251,Samarai,-10.6167,150.6667,78.85,84,72,11.61,PG,2022-07-28 03:56:52
252,Bonneville,46.0802,6.4073,64.6,81,0,2.98,FR,2022-07-28 03:56:52
253,Rorvik,64.8621,11.2373,52.72,79,94,12.21,NO,2022-07-28 03:56:53
254,Danilov,58.1908,40.1717,66.97,93,65,4.16,RU,2022-07-28 03:56:53
255,Srandakan,-7.9386,110.2506,83.05,71,71,11.88,ID,2022-07-28 03:56:53
256,Avera,33.194,-82.5271,81.55,62,59,7.43,US,2022-07-28 03:56:54
257,Shache,38.4167,77.2406,96.15,14,5,9.55,CN,2022-07-28 03:56:54
258,Adre,13.4667,22.2,70.57,79,100,3.47,TD,2022-07-28 03:56:54
259,Eskisehir,39.7767,30.5206,66.79,51,0,0.54,TR,2022-07-28 03:56:55
260,Zambezi,-13.5432,23.1047,49.48,64,98,5.44,ZM,2022-07-28 03:56:55
261,Ainazi,57.8636,24.3578,59.58,82,70,11.48,LV,2022-07-28 03:56:55
262,Laguna,38.421,-121.4238,84.61,48,0,6.91,US,2022-07-28 03:56:56
263,San Isidro,-12.1167,-77.05,61.02,89,100,9.22,PE,2022-07-28 03:56:56
264,Capao Da Canoa,-29.7456,-50.0097,62.53,86,100,4.25,BR,2022-07-28 03:54:10
265,Sabang,5.8933,95.3214,81.93,74,70,5.73,ID,2022-07-28 03:56:57
266,Auki,-8.7676,160.7034,85.84,63,15,4.38,SB,2022-07-28 03:56:57
267,Flinders,-34.5833,150.8552,68.18,52,12,8.01,AU,2022-07-28 03:54:58
268,Abonnema,4.7084,6.7931,73.31,96,100,6.13,NG,2022-07-28 03:56:57
269,Sarkand,45.41,79.9186,72.57,65,97,3.6,KZ,2022-07-28 03:56:58
270,Richards Bay,-28.783,32.0377,62.47,89,89,4.99,ZA,2022-07-28 03:54:16
271,Lundamo,63.1333,10.3,45.27,91,100,0.78,NO,2022-07-28 03:56:58
272,Sur,22.5667,59.5289,82.13,70,91,16.04,OM,2022-07-28 03:54:00
273,Kudat,6.8837,116.8477,86.29,74,20,5.99,MY,2022-07-28 03:56:59
274,Upernavik,72.7868,-56.1549,40.32,85,100,1.72,GL,2022-07-28 03:56:59
275,Broome,42.2506,-75.833,72.64,85,87,2.93,US,2022-07-28 03:53:10
276,Nayudupeta,13.9,79.9,86.88,60,49,4.99,IN,2022-07-28 03:58:00
277,Kivertsi,50.8343,25.4582,58.91,92,74,2.46,UA,2022-07-28 03:58:00
278,Hanzhong,33.0728,107.0303,85.17,60,0,0.81,CN,2022-07-28 03:58:00
279,Pemangkat,1.1667,108.9667,86.11,63,52,2.77,ID,2022-07-28 03:58:01
280,Pavlivka,49.4414,28.4596,60.28,84,42,7.25,UA,2022-07-28 03:58:01
281,Shimoda,34.6667,138.95,86.36,75,78,8.21,JP,2022-07-28 03:58:01
282,Vestmannaeyjar,63.4427,-20.2734,51.58,74,97,16.98,IS,2022-07-28 03:58:02
283,Carahue,-38.7,-73.1667,47.61,90,100,1.5,CL,2022-07-28 03:58:02
284,Turan,16.0678,108.2208,93.18,49,0,2.3,VN,2022-07-28 03:53:03
285,Zachary,30.6485,-91.1565,76.82,89,34,5.03,US,2022-07-28 03:58:02
286,Mancio Lima,-7.6142,-72.8958,75.27,100,0,0.0,BR,2022-07-28 03:58:03
287,Riyadh,24.6877,46.7219,93.34,27,100,14.9,SA,2022-07-28 03:55:28
288,Rujewa,-8.7,34.3833,58.14,71,9,6.22,TZ,2022-07-28 03:58:03
289,Logumkloster,55.0594,8.9551,57.13,70,97,8.37,DK,2022-07-28 03:58:03
290,Manaure,11.7751,-72.4445,80.24,77,5,12.44,CO,2022-07-28 03:58:04
291,La Ronge,55.1001,-105.2842,66.42,55,20,0.0,CA,2022-07-28 03:58:04
292,Sungaipenuh,-2.0833,101.3833,80.64,50,64,1.7,ID,2022-07-28 03:58:05
293,Senanga,-16.1167,23.2667,50.07,71,21,5.17,ZM,2022-07-28 03:58:06
294,Coquimbo,-29.9533,-71.3436,53.33,93,75,1.14,CL,2022-07-28 03:53:23
295,Paracuru,-3.41,-39.0306,75.11,84,79,13.13,BR,2022-07-28 03:58:06
296,Cayenne,4.9333,-52.3333,76.08,1,0,0.0,GF,2022-07-28 03:58:06
297,Aykhal,66.0,111.5,83.12,55,22,12.5,RU,2022-07-28 03:58:07
298,Sola,-13.8833,167.55,81.27,83,100,0.0,VU,2022-07-28 03:56:33
299,Port Shepstone,-30.7414,30.455,64.65,77,100,3.0,ZA,2022-07-28 03:58:07
300,Banes,20.9625,-75.7186,78.57,80,13,13.22,CU,2022-07-28 03:58:08
301,Radstadt,47.3833,13.45,60.17,92,23,4.41,AT,2022-07-28 03:58:08
302,Khash,28.2211,61.2158,76.48,70,96,2.06,IR,2022-07-28 03:58:08
303,Wasilla,61.5814,-149.4394,69.78,39,0,6.91,US,2022-07-28 03:55:16
304,Kalmunai,7.4167,81.8167,83.5,66,86,2.37,LK,2022-07-28 03:58:09
305,Santiago Del Estero,-27.7951,-64.2615,68.86,47,74,16.98,AR,2022-07-28 03:58:09
306,San Patricio,28.017,-97.5169,85.89,72,3,13.02,US,2022-07-28 03:58:09
307,Manokwari,-0.8667,134.0833,84.31,68,68,9.73,ID,2022-07-28 03:58:10
308,Amapa,1.0,-52.0,70.14,97,15,0.89,BR,2022-07-28 03:58:10
309,Guerrero Negro,27.9769,-114.0611,68.54,83,67,14.79,MX,2022-07-28 03:54:56
310,Antofagasta,-23.65,-70.4,56.48,84,83,8.19,CL,2022-07-28 03:58:10
311,Kembe,4.6228,21.8865,68.67,98,100,2.17,CF,2022-07-28 03:58:11
312,Nemuro,43.3236,145.575,64.96,91,43,4.9,JP,2022-07-28 03:58:11
313,Bouar,5.934,15.596,62.89,98,88,3.33,CF,2022-07-28 03:58:11
314,Teya,60.3778,92.6267,65.21,65,99,1.61,RU,2022-07-28 03:58:12
315,Nishihara,26.1842,127.7558,87.08,74,75,9.22,JP,2022-07-28 03:58:12
316,Puerto Del Rosario,28.5004,-13.8627,73.15,73,75,18.41,ES,2022-07-28 03:58:12
317,Harper,4.375,-7.7169,75.31,73,99,10.98,LR,2022-07-28 03:58:13
318,Mayskiy,47.6931,40.1025,65.61,53,1,4.61,RU,2022-07-28 03:58:13
319,Ilebo,-4.3167,20.5833,68.56,80,88,1.19,CD,2022-07-28 03:58:13
320,Craig,40.5153,-107.5464,76.62,26,100,2.86,US,2022-07-28 03:54:13
321,Cayhagan,9.6697,122.4256,84.24,73,96,8.61,PH,2022-07-28 03:58:14
322,Lata,40.1629,-8.3327,54.95,92,0,1.48,PT,2022-07-28 03:58:14
323,Waipawa,-41.4122,175.5153,50.67,81,93,15.41,NZ,2022-07-28 03:53:57
324,Bougouni,11.417,-7.479,71.13,93,29,6.4,ML,2022-07-28 03:58:14
325,Trincomalee,8.5711,81.2335,82.74,69,84,4.41,LK,2022-07-28 03:59:15
326,Ust-Maya,60.4167,134.5333,87.31,35,71,2.66,RU,2022-07-28 03:59:15
327,Kamenka,51.3223,42.7678,71.08,65,99,5.5,RU,2022-07-28 03:59:15
328,Nelson Bay,-32.7167,152.15,66.99,51,3,7.0,AU,2022-07-28 03:59:16
329,Grand Gaube,-20.0064,57.6608,70.38,76,3,3.0,MU,2022-07-28 03:59:16
330,Kharar,30.7444,76.6478,87.31,61,70,10.6,IN,2022-07-28 03:59:17
331,Blackfoot,43.1905,-112.345,81.77,20,75,3.69,US,2022-07-28 03:59:17
332,Rubtsovsk,51.5,81.25,83.37,30,79,11.61,RU,2022-07-28 03:59:18
333,Okhotsk,59.3833,143.3,66.15,74,28,7.25,RU,2022-07-28 03:59:18
334,Srednyaya Yelyuzan,53.0241,45.9529,69.15,79,0,6.35,RU,2022-07-28 03:59:18
335,Doljo,9.5875,123.7303,84.65,70,93,9.17,PH,2022-07-28 03:59:19
336,Surt,31.2089,16.5887,78.1,63,0,3.49,LY,2022-07-28 03:59:19
337,General Roca,-39.0333,-67.5833,44.62,64,1,15.82,AR,2022-07-28 03:59:19
338,Huilong,31.8111,121.655,86.85,76,0,12.21,CN,2022-07-28 03:59:20
339,Hami,42.8,93.45,94.21,9,0,7.02,CN,2022-07-28 03:57:25
340,Sao Joao Da Barra,-21.6403,-41.0511,68.34,85,0,10.6,BR,2022-07-28 03:59:20
341,Ambon,-3.6954,128.1814,78.94,89,75,8.05,ID,2022-07-28 03:59:20
342,High Level,58.5169,-117.136,78.91,53,20,4.61,CA,2022-07-28 03:59:21
343,Huarmey,-10.0681,-78.1522,62.55,86,26,9.28,PE,2022-07-28 03:59:21
344,Hoganas,56.1997,12.558,57.34,74,74,5.99,SE,2022-07-28 03:59:21
345,Ati,13.2154,18.3353,74.48,82,94,11.92,TD,2022-07-28 03:59:22
346,Labrea,-7.2586,-64.7981,73.18,53,0,1.28,BR,2022-07-28 03:59:22
347,Olbernhau,50.6667,13.3333,53.01,68,52,1.57,DE,2022-07-28 03:59:22
348,Nizamabad,18.6667,78.1167,82.89,73,82,2.66,IN,2022-07-28 03:59:23
349,Sovetskiy,61.3614,63.5842,68.72,44,0,4.7,RU,2022-07-28 03:59:23
350,Mayo,38.8876,-76.5119,81.21,88,100,1.99,US,2022-07-28 03:59:23
351,Ust-Nera,64.5667,143.2,74.01,39,93,2.08,RU,2022-07-28 03:59:24
352,Shymkent,42.3,69.6,84.79,28,0,2.24,KZ,2022-07-28 03:59:24
353,Gawler,-34.6,138.7333,61.21,60,72,8.5,AU,2022-07-28 03:59:24
354,Anshun,26.25,105.9333,77.18,67,96,2.19,CN,2022-07-28 03:59:25
355,Kuala Terengganu,5.3302,103.1408,85.95,74,20,7.0,MY,2022-07-28 03:59:25
356,Jacareacanga,-6.2222,-57.7528,78.3,44,97,1.54,BR,2022-07-28 03:54:30
357,Cabra,37.4725,-4.4421,67.93,52,0,1.86,ES,2022-07-28 03:59:25
358,Taltal,-25.4,-70.4833,59.25,79,100,3.83,CL,2022-07-28 03:59:26
359,Jardim,-21.4803,-56.1381,69.19,44,14,2.73,BR,2022-07-28 03:59:26
360,Olga,43.7444,135.2892,78.82,68,37,5.95,RU,2022-07-28 03:59:26
361,Ugoofaaru,5.6667,73.0,82.13,74,99,15.55,MV,2022-07-28 03:59:27
362,Bulaevo,54.9056,70.4439,63.46,93,100,13.89,KZ,2022-07-28 03:59:27
363,Sapozhok,53.9419,40.6806,72.66,67,50,6.33,RU,2022-07-28 03:59:27
364,Gayeri,12.6497,0.4931,77.13,77,100,13.06,BF,2022-07-28 03:59:28
365,Namatanai,-3.6667,152.4333,84.97,67,69,13.09,PG,2022-07-28 03:59:28
366,Basco,20.4487,121.9702,85.68,76,95,13.85,PH,2022-07-28 04:00:28
367,Ilulissat,69.2167,-51.1,42.82,93,100,1.14,GL,2022-07-28 04:00:29
368,Touros,-5.1989,-35.4608,72.72,86,36,12.12,BR,2022-07-28 03:59:10
369,Obidos,-1.9175,-55.5181,77.25,72,82,2.17,BR,2022-07-28 04:00:29
370,Narsaq,60.9167,-46.05,46.62,85,15,1.72,GL,2022-07-28 04:00:30
371,Saint-Augustin,51.226,-58.6502,56.32,89,58,8.99,CA,2022-07-28 03:55:41
372,Chissamba,-12.1667,17.3333,51.55,40,100,1.68,AO,2022-07-28 04:00:30
373,Hovd,48.0056,91.6419,67.73,31,4,5.39,MN,2022-07-28 04:00:31
374,Athabasca,54.7169,-113.2854,69.04,72,15,7.02,CA,2022-07-28 04:00:31
375,Maningrida,-12.0667,134.2667,85.57,43,46,11.79,AU,2022-07-28 04:00:31
376,Tessalit,20.1986,1.0114,92.17,23,67,10.54,ML,2022-07-28 04:00:32
377,Bhadrachalam,17.6667,80.8833,84.87,74,39,2.89,IN,2022-07-28 04:00:32
378,Ngaoundere,7.3167,13.5833,62.35,97,100,1.79,CM,2022-07-28 04:00:33
379,Synya,65.3718,58.0387,68.13,45,64,7.94,RU,2022-07-28 04:00:33
380,Ozernovskiy,51.5,156.5167,54.45,94,100,9.62,RU,2022-07-28 04:00:33
381,Yumen,40.2833,97.2,89.53,13,76,16.78,CN,2022-07-28 03:56:33
382,Usevya,-7.1,31.2333,67.03,59,39,8.88,TZ,2022-07-28 04:00:34
383,Conde,-7.2597,-34.9075,71.06,94,20,6.91,BR,2022-07-28 03:55:47
384,Puerto Madryn,-42.7692,-65.0385,41.85,77,35,17.36,AR,2022-07-28 04:00:35
385,Luderitz,-26.6481,15.1594,53.87,75,0,2.33,NA,2022-07-28 04:00:35
386,Arlit,18.7369,7.3853,85.42,50,84,20.33,NE,2022-07-28 04:00:35
387,Aguimes,27.9054,-15.4461,70.66,73,20,28.77,ES,2022-07-28 04:00:36
388,Prainha,-1.8,-53.48,76.28,76,98,2.57,BR,2022-07-28 04:00:36
389,Kijang,35.2442,129.2139,82.13,87,68,11.14,KR,2022-07-28 04:00:37
390,Meulaboh,4.1363,96.1285,83.95,66,92,2.37,ID,2022-07-28 03:58:12
391,Turukhansk,65.8167,87.9833,66.4,76,95,5.64,RU,2022-07-28 04:00:37
392,Freeport,40.6576,-73.5832,78.13,77,100,3.0,US,2022-07-28 04:00:37
393,Namibe,-15.1961,12.1522,61.2,79,75,7.11,AO,2022-07-28 04:00:34
394,Chittaurgarh,24.8833,74.6333,81.72,76,100,10.38,IN,2022-07-28 04:00:38
395,Hasaki,35.7333,140.8333,97.29,78,77,15.95,JP,2022-07-28 04:00:38
396,Razumnoye,50.5344,36.6846,69.08,77,0,2.24,RU,2022-07-28 04:00:39
397,Ampanihy,-24.7,44.75,56.32,87,0,5.68,MG,2022-07-28 04:00:39
398,Gorontalo,0.5412,123.0595,83.16,79,66,6.08,ID,2022-07-28 04:00:39
399,Buraydah,26.326,43.975,91.87,12,99,3.89,SA,2022-07-28 04:00:40
400,Faya,18.3851,42.4509,67.62,58,100,4.25,SA,2022-07-28 04:00:40
401,Roma,43.2128,-75.4557,71.73,85,100,1.01,US,2022-07-28 04:00:41
402,Savelugu,9.6244,-0.8253,73.99,89,91,9.98,GH,2022-07-28 04:00:41
403,Vilyuysk,63.7553,121.6247,87.6,35,53,7.45,RU,2022-07-28 04:00:41
404,Aleksandrovka,46.8383,32.7612,74.07,59,9,1.36,UA,2022-07-28 04:00:42
405,Esperance,-33.8667,121.9,65.82,45,2,16.2,AU,2022-07-28 04:00:42
406,Martapura,-3.4167,114.85,80.69,89,40,5.75,ID,2022-07-28 04:00:42
407,At-Bashi,41.1702,75.8106,78.4,25,81,2.13,KG,2022-07-28 04:00:43
408,San Luis De Palenque,5.4214,-71.7317,71.33,97,100,6.2,CO,2022-07-28 04:00:43
409,Famoes,38.788,-9.2103,67.39,77,20,18.99,PT,2022-07-28 04:00:43
410,Puerto Leguizamo,-0.1934,-74.7819,68.56,99,90,1.68,CO,2022-07-28 04:00:44
411,Ambilobe,-13.2,49.05,66.09,82,6,2.73,MG,2022-07-28 04:01:44
412,Seoul,37.5683,126.9778,92.59,54,20,5.75,KR,2022-07-28 03:59:23
413,Gilgit,35.9221,74.3087,85.64,53,36,2.91,PK,2022-07-28 04:01:45
414,Nouadhibou,20.931,-17.0347,71.85,76,4,29.35,MR,2022-07-28 04:01:46
415,Virginia Beach,36.8529,-75.978,81.01,86,34,3.0,US,2022-07-28 03:59:16
416,Sikandarabad,28.45,77.7,88.75,64,40,6.64,IN,2022-07-28 04:01:46
417,Abu Kamal,34.4506,40.9171,88.77,15,0,5.93,SY,2022-07-28 04:01:46
418,Mezen,65.8522,44.24,66.45,87,71,8.32,RU,2022-07-28 04:01:47
419,Cherskiy,68.75,161.3,55.31,47,99,6.15,RU,2022-07-28 04:01:47
420,Hurghada,27.2574,33.8129,82.44,28,0,5.75,EG,2022-07-28 03:59:50
421,Gbarnga,6.9956,-9.4722,69.22,99,98,1.66,LR,2022-07-28 04:01:48
422,Lima,-12.0432,-77.0282,59.9,89,65,8.34,PE,2022-07-28 04:01:42
423,Tateyama,34.9833,139.8667,82.15,81,50,12.17,JP,2022-07-28 04:01:48
424,Namanga,-2.5433,36.7905,60.12,83,100,4.29,KE,2022-07-28 04:01:48
425,Loukhi,66.0764,33.0381,61.52,75,21,7.81,RU,2022-07-28 04:01:49
426,Southbridge,42.0751,-72.0334,69.89,87,90,3.0,US,2022-07-28 04:01:49
427,La Paz,-16.5,-68.15,42.39,40,6,3.06,BO,2022-07-28 04:00:14
428,Gaomi,36.3833,119.7528,87.44,67,80,6.42,CN,2022-07-28 04:01:49
429,Havoysund,70.9963,24.6622,48.43,87,100,20.65,NO,2022-07-28 03:57:06
430,Beringovskiy,63.05,179.3167,49.19,93,100,5.28,RU,2022-07-28 03:57:08
431,Saint Anthony,45.0205,-93.218,71.89,56,100,5.75,US,2022-07-28 04:01:50
432,Codrington,-38.2667,141.9667,48.88,89,100,7.02,AU,2022-07-28 04:01:50
433,Forio,40.7342,13.8646,80.42,86,5,1.01,IT,2022-07-28 04:01:50
434,Omsukchan,62.5333,155.8,61.23,34,69,7.78,RU,2022-07-28 03:57:10
435,Manzhouli,49.6,117.4333,75.33,48,13,7.23,CN,2022-07-28 04:01:51
436,Vila Franca Do Campo,37.7167,-25.4333,72.01,93,83,3.65,PT,2022-07-28 04:01:51
437,Guaruja,-23.9931,-46.2564,66.87,81,7,3.33,BR,2022-07-28 04:01:52
438,Bogolyubovo,56.1956,40.5297,69.98,79,9,6.42,RU,2022-07-28 04:01:52
439,Vrede,-27.4257,29.1659,45.41,84,74,4.74,ZA,2022-07-28 04:01:52
440,Iwanai,42.9744,140.5089,77.52,73,77,6.08,JP,2022-07-28 04:01:53
441,Obzor,42.8167,27.8833,73.27,77,0,3.11,BG,2022-07-28 04:01:53
442,Ponta Delgada,37.7333,-25.6667,72.32,94,75,3.44,PT,2022-07-28 04:01:35
443,Altamira,-3.2033,-52.2064,75.78,73,90,1.86,BR,2022-07-28 04:01:21
444,Qingdao,36.0986,120.3719,82.53,74,71,9.28,CN,2022-07-28 04:01:53
445,Krasnogorsk,55.8225,37.3181,71.94,83,0,2.24,RU,2022-07-28 03:57:56
446,Inta,66.0317,60.1659,67.87,49,93,13.6,RU,2022-07-28 04:01:54
447,Le Pont-De-Claix,45.1244,5.7064,64.47,75,1,2.51,FR,2022-07-28 04:01:54
448,Chicama,-7.8447,-79.1469,62.65,86,39,6.53,PE,2022-07-28 04:01:54
449,Yeppoon,-23.1333,150.7333,67.78,49,0,7.43,AU,2022-07-28 04:01:55
450,Charlestown,-32.95,151.6667,68.11,53,6,3.0,AU,2022-07-28 03:58:49
451,Paranaiba,-19.6772,-51.1908,69.06,37,11,5.61,BR,2022-07-28 04:01:55
452,Katsuura,35.1333,140.3,83.41,78,56,11.65,JP,2022-07-28 04:01:55
453,Chengalpattu,12.7,79.9833,87.51,61,90,2.57,IN,2022-07-28 04:01:56
454,Nalut,30.3333,10.85,78.78,28,0,10.67,LY,2022-07-28 04:01:56
455,Bay Roberts,47.5999,-53.2648,64.33,93,10,5.99,CA,2022-07-28 04:01:56
456,Darhan,49.4867,105.9228,57.96,83,100,6.42,MN,2022-07-28 04:01:57
457,Pavlodar,52.3,76.95,80.4,34,20,22.37,KZ,2022-07-28 04:02:57
458,Governador Valadares,-18.8511,-41.9494,63.73,69,0,2.08,BR,2022-07-28 04:02:57
459,Mbekenyera,-10.0,38.9833,63.52,91,34,3.13,TZ,2022-07-28 04:02:57
460,Viedma,-40.8135,-62.9967,42.85,91,51,8.5,AR,2022-07-28 04:02:58
461,Laibin,23.7,109.2667,91.98,50,100,6.71,CN,2022-07-28 04:02:58
462,Mehamn,71.0357,27.8492,49.95,93,75,20.71,NO,2022-07-28 04:02:58
463,Cozumel,20.5083,-86.9458,80.01,84,24,3.0,MX,2022-07-28 04:02:59
464,Labe,11.3182,-12.2833,65.34,98,100,4.56,GN,2022-07-28 04:02:59
465,Umm Lajj,25.0213,37.2685,86.02,56,32,6.6,SA,2022-07-28 04:02:59
466,Tura,25.5198,90.2201,81.66,83,44,4.18,IN,2022-07-28 04:03:00
467,Ligayan,4.6533,119.4706,83.8,69,70,4.18,PH,2022-07-28 04:03:00
468,Caravelas,-17.7125,-39.2481,67.39,86,32,1.61,BR,2022-07-28 04:03:00
469,Praia,14.9215,-23.5087,79.47,82,90,1.81,CV,2022-07-28 04:03:01
470,Xapuri,-10.6517,-68.5044,75.96,63,69,0.36,BR,2022-07-28 04:03:01
471,Antalaha,-14.9003,50.2788,68.36,91,99,5.06,MG,2022-07-28 04:03:01
472,Eenhana,-17.4667,16.3333,53.01,37,24,4.56,NA,2022-07-28 04:03:02
473,Gondanglegi,-7.7479,112.0132,85.5,63,99,8.01,ID,2022-07-28 04:03:02
474,Evansville,37.9748,-87.5558,79.2,87,78,0.47,US,2022-07-28 04:03:02
475,Fairlie,55.756,-4.8556,51.49,90,100,4.88,GB,2022-07-28 04:03:03
476,Palu,-0.8917,119.8707,84.83,78,83,2.53,ID,2022-07-28 04:03:03
477,Makakilo City,21.3469,-158.0858,82.56,58,32,13.29,US,2022-07-28 04:03:03
478,Tiznit,29.5833,-9.5,73.31,57,0,2.08,MA,2022-07-28 04:03:04
479,Tortoli,39.9256,9.6572,75.51,55,0,4.63,IT,2022-07-28 04:03:04
480,Udachnyy,66.4167,112.4,88.45,45,17,9.55,RU,2022-07-28 04:03:04
481,Marawi,7.9986,124.2928,79.03,79,80,2.82,PH,2022-07-28 04:03:05
482,Marsh Harbour,26.5412,-77.0636,81.95,73,32,12.73,BS,2022-07-28 04:03:05
483,Broken Hill,-31.95,141.4333,60.26,32,6,5.7,AU,2022-07-28 04:03:05
484,Klyuchi,52.2667,79.1667,81.25,34,99,18.88,RU,2022-07-28 04:03:06
485,Temir,49.1414,57.13,73.47,56,16,7.34,KZ,2022-07-28 04:03:06
486,Parnera,20.55,72.95,81.09,81,96,4.47,IN,2022-07-28 04:03:06
487,Chapais,49.7834,-74.8492,59.32,93,100,3.42,CA,2022-07-28 04:02:46
488,Villa Rica,33.7321,-84.9191,81.79,96,99,4.76,US,2022-07-28 04:01:01
489,Cangzhou,38.3167,116.8667,76.66,78,100,8.43,CN,2022-07-28 04:00:26
490,Winona,43.9666,-91.7668,69.98,59,0,8.05,US,2022-07-28 04:01:57
491,Coihaique,-45.5752,-72.0662,39.81,65,0,3.44,CL,2022-07-28 03:59:11
492,Sao Luiz Gonzaga,-28.4083,-54.9608,64.69,82,100,6.4,BR,2022-07-28 04:02:46
493,Bilibino,68.0546,166.4372,54.27,43,100,2.64,RU,2022-07-28 04:03:07
494,Neijiang,29.5835,105.0622,85.35,70,16,3.71,CN,2022-07-28 04:03:08
495,Sayyan,15.1718,44.3244,59.63,66,90,9.08,YE,2022-07-28 04:03:08
496,Sindal,57.4712,10.2031,53.33,92,8,4.18,DK,2022-07-28 04:03:08
497,Salalah,17.0151,54.0924,75.06,96,100,9.53,OM,2022-07-28 04:03:09
498,Chardara,41.2547,67.9692,87.21,28,2,9.8,KZ,2022-07-28 04:03:09
499,Aasiaat,68.7098,-52.8699,33.89,98,91,5.28,GL,2022-07-28 04:03:10
500,Impfondo,1.6381,18.0667,69.67,94,100,1.63,CG,2022-07-28 04:03:10
501,Mookane,-23.688,26.6595,55.78,52,4,6.53,BW,2022-07-28 04:03:10
502,Takaka,-40.85,172.8,53.56,87,42,4.65,NZ,2022-07-28 04:04:10
503,Nyurba,63.2842,118.3319,88.05,38,26,8.79,RU,2022-07-28 04:04:11
504,Aksarka,66.5606,67.7975,68.86,50,67,10.78,RU,2022-07-28 04:04:11
505,Calama,-22.4667,-68.9333,43.29,22,80,16.11,CL,2022-07-28 03:59:21
506,Bokhan,53.153,103.7714,69.01,55,98,8.32,RU,2022-07-28 04:04:12
507,Araouane,18.9048,-3.5265,93.85,12,0,10.07,ML,2022-07-28 04:04:12
508,Fairbanks,64.8378,-147.7164,61.61,57,75,13.8,US,2022-07-28 04:02:41
509,Sabha,27.0377,14.4283,79.03,16,0,9.37,LY,2022-07-28 04:04:12
510,Komsomolskiy,40.4272,71.7189,88.52,30,4,9.22,UZ,2022-07-28 04:04:13
511,Westport,41.1415,-73.3579,76.08,89,20,5.75,US,2022-07-28 04:04:13
512,Nadym,65.5333,72.5167,66.0,49,48,9.4,RU,2022-07-28 04:04:13
513,Aripuana,-9.1667,-60.6333,72.16,48,5,1.61,BR,2022-07-28 04:04:14
514,Morondava,-20.2833,44.2833,63.68,78,0,4.97,MG,2022-07-28 04:04:14
515,Cotonou,6.3654,2.4183,76.55,85,100,17.94,BJ,2022-07-28 04:04:14
516,Zhigansk,66.7697,123.3711,79.02,47,27,4.5,RU,2022-07-28 04:04:15
517,Lasa,46.6166,10.7002,56.7,92,75,2.3,IT,2022-07-28 04:04:15
518,Srednekolymsk,67.45,153.6833,58.5,40,100,10.4,RU,2022-07-28 04:04:15
519,Canaries,28.0,-15.5,66.4,73,20,28.77,ES,2022-07-28 04:04:16
520,Grindavik,63.8424,-22.4338,48.67,93,75,23.02,IS,2022-07-28 04:04:16
521,Sioux Lookout,50.1001,-91.917,53.71,96,97,8.34,CA,2022-07-28 04:04:16
522,Awbari,26.5921,12.7805,77.18,16,0,6.29,LY,2022-07-28 04:04:17
523,Husavik,66.0449,-17.3389,52.09,82,25,9.69,IS,2022-07-28 04:04:17
524,Loa Janan,-0.583,117.095,78.15,94,100,1.97,ID,2022-07-28 04:04:17
525,Terrace Bay,48.7834,-87.1,46.72,98,94,5.86,CA,2022-07-28 04:00:15
526,Srinagar,34.0833,74.8167,70.93,87,99,1.52,IN,2022-07-28 04:04:18
527,Aloleng,16.1307,119.7824,85.19,73,100,6.11,PH,2022-07-28 04:04:18
528,Bozhou,33.8772,115.7703,79.11,87,100,3.85,CN,2022-07-28 04:04:19
529,Alofi,-19.0595,-169.9187,76.89,83,75,11.5,NU,2022-07-28 03:59:41
530,Kargasok,59.0556,80.8572,69.35,74,45,10.98,RU,2022-07-28 04:04:19
531,Tilichiki,60.4667,166.1,49.77,64,100,15.3,RU,2022-07-28 04:04:19
532,Bathsheba,13.2167,-59.5167,81.05,87,50,16.84,BB,2022-07-28 04:04:20
533,Falun,60.6036,15.626,45.21,92,2,3.2,SE,2022-07-28 04:04:20
534,Vilhena,-12.7406,-60.1458,67.64,48,6,3.89,BR,2022-07-28 04:04:20
535,Rocha,-34.4833,-54.3333,64.42,95,100,8.19,UY,2022-07-28 04:04:21
536,Ketchikan,55.3422,-131.6461,72.07,46,0,5.75,US,2022-07-28 04:04:21
537,Ahipara,-35.1667,173.1667,57.49,83,43,14.05,NZ,2022-07-28 04:04:21
538,Merced,37.1666,-120.7516,88.29,30,21,10.11,US,2022-07-28 04:04:22
539,Bucerias,20.75,-105.3333,79.99,94,40,5.75,MX,2022-07-28 04:04:22
540,Muslyumovo,55.3033,53.1947,66.97,70,45,6.87,RU,2022-07-28 04:04:22
541,Dawei,14.0833,98.2,87.03,69,96,3.04,MM,2022-07-28 04:04:23
542,Pathein,16.7833,94.7333,89.37,61,12,9.8,MM,2022-07-28 04:04:23
543,Inongo,-1.95,18.2667,67.98,77,94,2.8,CD,2022-07-28 04:04:24
544,Natal,-5.795,-35.2094,70.45,100,0,4.61,BR,2022-07-28 04:01:58
545,Evensk,61.95,159.2333,58.89,55,74,4.92,RU,2022-07-28 04:04:24
546,Digby,44.6169,-65.7655,59.72,84,69,7.09,CA,2022-07-28 04:04:24
547,Pimenta Bueno,-11.6725,-61.1936,70.59,51,4,2.44,BR,2022-07-28 04:04:25
548,Richmond Hill,43.8711,-79.4372,71.55,84,38,4.63,CA,2022-07-28 04:02:30
549,Ayan,56.45,138.1667,59.77,87,31,10.16,RU,2022-07-28 04:05:25
550,Nome,64.5011,-165.4064,53.17,82,100,12.66,US,2022-07-28 04:05:25
551,Umm Kaddadah,13.6017,26.6876,77.45,67,99,6.6,SD,2022-07-28 04:05:26
552,Yenagoa,4.9247,6.2642,73.47,96,100,4.14,NG,2022-07-28 04:05:26
553,Casino,-28.8667,153.05,67.78,47,0,0.94,AU,2022-07-28 04:05:26
554,Tabuk,17.4189,121.4443,87.12,69,100,4.45,PH,2022-07-28 04:05:27
555,Camabatela,-8.1881,15.375,56.91,93,100,4.07,AO,2022-07-28 04:05:27
556,Swan Hill,-35.3378,143.5544,50.41,87,100,6.91,AU,2022-07-28 04:05:27
557,Marzuq,14.4,46.4667,81.07,43,96,5.88,YE,2022-07-28 04:05:28
558,Linxi,39.7,118.4333,72.25,95,100,7.81,CN,2022-07-28 04:05:28
559,Dongsheng,39.8161,109.9776,79.93,30,0,7.31,CN,2022-07-28 04:05:29
560,Voi,-3.3945,38.563,65.59,86,85,6.82,KE,2022-07-28 04:05:29
561,Hervey Bay,-25.2986,152.8535,66.7,54,3,9.31,AU,2022-07-28 04:05:29
562,Saint Charles,38.7667,-90.7335,75.67,91,0,1.99,US,2022-07-28 04:05:30
563,Rio De Janeiro,-22.9028,-43.2075,71.55,96,0,8.05,BR,2022-07-28 04:04:45
564,Poum,-20.2333,164.0167,73.53,68,85,13.04,NC,2022-07-28 04:05:30
565,Kavieng,-2.5744,150.7967,84.96,72,25,18.16,PG,2022-07-28 04:05:30
566,Berbera,10.4396,45.0143,88.9,38,38,22.77,SO,2022-07-28 04:05:31
567,Yamoussoukro,6.8206,-5.2767,72.86,94,100,4.65,CI,2022-07-28 04:05:31
568,Balezino,57.9796,53.0106,63.93,67,7,4.79,RU,2022-07-28 04:05:31
569,Mana,5.6592,-53.7767,75.78,90,96,3.96,GF,2022-07-28 04:05:32
570,Concordia,-31.393,-58.0209,66.78,92,70,5.99,AR,2022-07-28 04:05:32
571,Felanitx,39.4696,3.1483,74.14,75,0,0.96,ES,2022-07-28 04:05:32
572,Mitu,1.1983,-70.1733,70.97,99,100,0.65,CO,2022-07-28 04:05:33
573,Miyako,39.6367,141.9525,78.01,79,63,4.72,JP,2022-07-28 04:05:33
574,Netanya,32.3329,34.8599,75.22,70,0,0.83,IL,2022-07-28 04:05:34
575,Coihueco,-36.6167,-71.8333,39.94,93,0,2.3,CL,2022-07-28 04:05:34
576,Berlevag,70.8578,29.0864,50.0,93,100,25.32,NO,2022-07-28 04:05:34
577,Luwingu,-10.2621,29.9271,49.62,72,5,3.69,ZM,2022-07-28 04:05:35
578,Motozintla,15.3667,-92.2333,62.65,97,100,2.53,MX,2022-07-28 04:05:35
579,Juruti,-2.1522,-56.0922,76.5,71,14,2.66,BR,2022-07-28 04:05:35
580,Tautira,-17.7333,-149.15,77.04,79,41,26.31,PF,2022-07-28 04:05:36
581,Ileza,61.0533,43.9002,66.85,88,80,7.02,RU,2022-07-28 04:05:36
582,Pangody,65.85,74.4859,63.82,55,9,12.64,RU,2022-07-28 04:05:36
583,Biskamzha,53.4497,89.5272,69.53,47,93,3.71,RU,2022-07-28 04:05:37
584,Thinadhoo,0.5333,72.9333,83.23,73,95,13.8,MV,2022-07-28 04:03:43
585,San Carlos De Bariloche,-41.1456,-71.3082,40.75,70,40,18.41,AR,2022-07-28 04:05:37
586,Asau,46.4333,26.4,63.52,82,16,3.11,RO,2022-07-28 04:05:37
587,Erzin,36.9559,36.2,80.2,47,0,0.49,TR,2022-07-28 04:05:38
588,Buochs,46.974,8.4228,64.89,88,2,2.3,CH,2022-07-28 04:05:38
589,Shepsi,44.0361,39.1489,70.84,64,0,3.98,RU,2022-07-28 04:05:38
590,Kidal,18.4411,1.4078,89.08,41,85,13.87,ML,2022-07-28 04:05:39
591,Ginda,30.6945,78.4932,67.03,97,100,1.12,IN,2022-07-28 04:05:39
592,Leh,34.1667,77.5833,57.13,75,100,6.08,IN,2022-07-28 04:06:39
593,Lookan,5.037,120.1027,83.89,70,33,3.89,PH,2022-07-28 04:06:40
594,Semporna,4.4818,118.6112,86.05,66,81,4.9,MY,2022-07-28 04:06:40
595,Kerman,30.2832,57.0788,80.46,57,40,4.61,IR,2022-07-28 04:06:40
596,Uspenka,48.3903,39.1619,73.65,63,5,4.83,UA,2022-07-28 04:06:41
597,Makat,47.6469,53.3463,84.04,33,67,3.91,KZ,2022-07-28 04:06:41
598,Honningsvag,70.9821,25.9704,47.95,87,100,18.41,NO,2022-07-28 04:06:41
599,Sechura,-5.5569,-80.8222,63.52,82,25,15.28,PE,2022-07-28 04:06:42
600,Puerto Escondido,15.85,-97.0667,78.53,85,78,3.13,MX,2022-07-28 04:05:07
601,Naraina,26.7833,75.2,82.71,76,91,13.85,IN,2022-07-28 04:06:42
602,Ottumwa,41.02,-92.4113,71.89,81,0,4.61,US,2022-07-28 04:05:38
603,Lebedinyy,58.5167,125.5167,83.57,43,20,2.51,RU,2022-07-28 04:06:42
604,Kolobrzeg,54.1757,15.5834,62.96,64,28,12.88,PL,2022-07-28 04:06:43
605,Sandpoint,48.2766,-116.5533,80.02,67,0,1.01,US,2022-07-28 04:02:53
606,Morro Bay,35.3658,-120.8499,73.18,84,21,4.43,US,2022-07-28 04:04:58
607,Beatrice,40.2681,-96.747,77.09,73,0,0.0,US,2022-07-28 04:06:43
608,Statesville,35.7826,-80.8873,78.89,94,0,0.0,US,2022-07-28 04:06:44
609,Ust-Kut,56.7938,105.7672,57.42,98,100,6.78,RU,2022-07-28 04:06:44
610,Camacha,33.0833,-16.3333,67.42,83,40,13.8,PT,2022-07-28 04:02:35
611,Churapcha,62.0025,132.4325,88.63,33,16,6.67,RU,2022-07-28 04:06:44
612,Anakapalle,17.6833,83.0167,85.95,61,61,2.82,IN,2022-07-28 04:06:45
613,Port Moresby,-9.4431,147.1797,80.29,80,84,20.11,PG,2022-07-28 04:06:45
614,Tezu,27.9167,96.1667,79.32,96,99,0.98,IN,2022-07-28 04:06:45
615,Pacific Grove,36.6177,-121.9166,62.82,87,0,8.01,US,2022-07-28 04:06:46
616,Port Blair,11.6667,92.75,84.85,70,89,7.63,IN,2022-07-28 04:06:46
617,Odweyne,9.4092,45.064,70.68,51,30,19.44,SO,2022-07-28 04:06:46
618,Igrim,63.1906,64.4162,68.04,49,2,3.74,RU,2022-07-28 04:06:47
619,Ca Mau,9.1769,105.15,89.15,62,75,4.38,VN,2022-07-28 04:06:47
620,Dire Dawa,9.5931,41.8661,69.98,59,56,15.01,ET,2022-07-28 04:06:47
621,Bonavista,48.6499,-53.1147,59.47,93,9,9.22,CA,2022-07-28 04:06:48
622,Taoudenni,22.6783,-3.9836,97.03,6,8,19.08,ML,2022-07-28 04:06:48
623,Hohhot,40.8106,111.6522,78.37,41,0,5.41,CN,2022-07-28 04:06:49
624,Granadilla De Abona,28.1188,-16.576,76.98,62,0,4.61,ES,2022-07-28 04:06:49
625,Rock Sound,24.9,-76.2,81.73,80,0,19.46,BS,2022-07-28 04:06:49
626,Labuhan,-6.8844,112.2051,86.47,60,99,7.49,ID,2022-07-28 04:06:50
627,Kaka,37.3482,59.6143,91.29,23,0,1.61,TM,2022-07-28 04:06:50
628,Kiama,-34.6833,150.8667,69.39,51,12,11.99,AU,2022-07-28 04:06:50
629,Sinnamary,5.3833,-52.95,76.42,88,96,5.32,GF,2022-07-28 04:06:51
630,Kanina,-10.7341,25.4699,54.3,52,93,6.35,CD,2022-07-28 04:06:51
631,Maniitsoq,65.4167,-52.9,41.23,85,39,9.93,GL,2022-07-28 04:06:51
632,Marsa Matruh,31.3525,27.2453,76.91,67,0,4.83,EG,2022-07-28 04:06:52
633,Guane,22.2025,-84.0875,77.65,88,68,5.79,CU,2022-07-28 04:06:52
634,Abu Samrah,35.3029,37.1841,79.05,39,0,5.06,SY,2022-07-28 04:06:52
635,Maragogi,-9.0122,-35.2225,71.46,89,56,4.83,BR,2022-07-28 04:06:53
636,Ferme-Neuve,46.7001,-75.4493,62.92,83,65,3.47,CA,2022-07-28 04:06:53
637,Malibu,34.005,-118.8101,77.56,72,5,5.37,US,2022-07-28 04:07:53
638,Banjar,-8.19,114.9675,86.68,61,56,2.93,ID,2022-07-28 04:07:54
639,Pokhara,28.2333,83.9833,71.78,97,100,0.81,NP,2022-07-28 04:07:23
640,Bubaque,11.2833,-15.8333,79.9,77,99,7.23,GW,2022-07-28 04:07:54
641,Kamaishi,39.2667,141.8833,78.04,81,36,4.47,JP,2022-07-28 04:07:54
642,Batagay-Alyta,67.8006,130.4114,82.99,38,21,2.37,RU,2022-07-28 04:07:55
643,Alekseyevsk,57.8406,108.3492,67.17,82,100,0.6,RU,2022-07-28 04:07:55
644,Comodoro Rivadavia,-45.8667,-67.5,44.46,42,0,18.41,AR,2022-07-28 04:07:55
645,Santa Maria,-29.6842,-53.8069,64.47,88,95,4.81,BR,2022-07-28 04:07:56
646,Palana,59.1167,159.9667,51.93,79,78,10.69,RU,2022-07-28 04:07:56
647,Barretos,-20.5572,-48.5678,65.14,44,1,6.22,BR,2022-07-28 04:07:56
648,Sawai Madhopur,25.9833,76.3667,79.77,79,100,12.68,IN,2022-07-28 04:07:57
649,Luena,-11.7833,19.9167,48.51,45,99,3.69,AO,2022-07-28 04:07:57
650,Redmond,47.674,-122.1215,84.97,63,79,4.29,US,2022-07-28 04:03:41
651,Shingu,33.7333,135.9833,85.3,69,35,6.71,JP,2022-07-28 04:07:57
652,Robinson,31.4677,-97.1147,89.6,56,0,14.97,US,2022-07-28 04:07:58
653,Chlorakas,34.8042,32.4083,74.28,38,0,4.61,CY,2022-07-28 04:07:58
654,Williams Lake,52.1415,-122.1445,76.93,44,0,2.51,CA,2022-07-28 04:07:59
655,Juegang,32.3174,121.1855,89.35,72,0,7.47,CN,2022-07-28 04:07:59
656,San Cristobal,7.7669,-72.225,66.38,94,52,2.19,VE,2022-07-28 04:07:59
657,Dalby,-27.1833,151.2667,61.5,39,0,4.16,AU,2022-07-28 04:08:00
658,Guiratinga,-16.3494,-53.7583,66.31,37,0,3.91,BR,2022-07-28 04:08:00
659,Lakatoro,-16.0999,167.4164,81.5,74,96,5.93,VU,2022-07-28 04:08:00
660,Villa Union,23.2,-106.2333,85.01,79,100,0.0,MX,2022-07-28 04:08:01
661,Hayden,47.766,-116.7866,85.15,47,0,3.44,US,2022-07-28 04:08:01
662,Rosetta,31.4044,30.4164,77.27,72,0,2.66,EG,2022-07-28 04:08:01
663,Batticaloa,7.7102,81.6924,82.49,70,95,3.89,LK,2022-07-28 04:08:02
664,Mbale,1.0821,34.175,63.03,91,77,3.4,UG,2022-07-28 04:08:02
665,Tete,-16.1564,33.5867,51.89,93,20,0.0,MZ,2022-07-28 04:06:08
666,Acambay,19.9558,-99.8417,50.22,95,100,3.6,MX,2022-07-28 04:03:03
667,Qaqortoq,60.7167,-46.0333,41.7,89,14,1.95,GL,2022-07-28 04:08:02
668,Kaupanger,61.1845,7.2404,46.89,93,20,0.0,NO,2022-07-28 04:08:03
669,Tha Maka,13.9,99.7667,87.91,57,89,4.54,TH,2022-07-28 04:08:03
670,Emerald,-23.5333,148.1667,65.34,42,0,13.18,AU,2022-07-28 04:08:03
